[
  {
    "name": "Горная Шория",
    "coordinates": [54.6666, 87.6166],
    "city": "Таштагол",
    "season": "Лето",
    "description": "Живописный горный район с альпийскими лугами и хвойными лесами."
  },
  {
    "name": "Горная Шорывия",
    "coordinates": [54.6666, 87.6166],
    "city": "Таштагол",
    "season": "Лето",
    "description": "Живописный горный район с альпийскими лугами и хвойными лесами."
  },
  {
    "name": "Горная Шфыафыаория",
    "coordinates": [54.6666, 87.6166],
    "city": "Таштагол",
    "season": "Лето",
    "description": "Живописный горный район с альпийскими лугами и хвойными лесами."
  },
  {
    "name": "Горная Шоапоапория",
    "coordinates": [54.6666, 87.6166],
    "city": "Таштагол",
    "season": "Лето",
    "description": "Живописный горный район с альпийскими лугами и хвойными лесами."
  },
  {
    "name": "Горная Шжродлжория",
    "coordinates": [54.6666, 87.6166],
    "city": "Таштагол",
    "season": "Лето",
    "description": "Живописный горный район с альпийскими лугами и хвойными лесами."
  },
  {
    "name": "Музей-заповедник «Томская Писаница»",
    "coordinates": [58.6333, 86.1833],
    "city": "Кемерово",
    "season": "Весна",
    "description": "Археологический и этнографический музей под открытым небом с наскальными рисунками."
  },
  {
    "name": "Кузнецкая крепость",
    "coordinates": [53.7833, 87.6166],
    "city": "Новокузнецк",
    "season": "Зима",
    "description": "Историческая крепость, основанная в 1800 году."
  },
  {
    "name": "Озеро Берчикуль",
    "coordinates": [54.4166, 88.6],
    "city": "Тисуль",
    "season": "Лето",
    "description": "Живописное озеро с чистой водой в окружении хвойных лесов."
  },
  {
    "name": "Парк Чудес",
    "coordinates": [53.7333, 87.1333],
    "city": "Новокузнецк",
    "season": "Зима",
    "description": "Парк развлечений с аттракционами и ледовым катком."
  }
]